{
    "alabama": {

        "abbrev": "al" ,
        "capital":{ 
            "name": "montgomery",
            "latitude": "32.361668",
            "longitude":  "-86.279167"
        }
    } , 	    

    "alaska": {

        "abbrev": "ak",

        "capital":  { 
            "name" :  "juneau",
            "latitude": "58.302194", 
            "longitude": "-134.410472"
        }
    } , 

    "arizona"	        : {
        
        "abbrev": "az",

        "capital" : {
            "name" : "phoenix",
            "latitude": "33.448376",
            "longitude": "-112.074036"
        }
    
    } , 
    "arkansas"	        : {
        "abbrev": "ar" ,
        "capital":  {
            "name:":"little rock",
            "longitude": "-92.199997",
            "latitude": "34.799999"
        }
    } , 

    "california"        : {
        "abbrev": "ca" ,
        "capital" : {
            "name" : "sacramento", 
            "longitude": "-119.417931",
            "latitude": "36.778259"
        } 

    },

    "colorado" : {
        "abbrev": "co", 
        "capital": {
            "name": "denver",
            "longitude": "-105.358887", 
            "latitude": "39.113014"
        } 
    },
    
    
    "connecticut"       : {
        "abbrev": "ct" ,
        "capital" : {
            "name": "hartford",
            "longitude": "-72.699997",
            "latitude" : "41.599998"
        }
    }, 


    "delaware"	        : {
        "abbrev": "de" ,
        "capital" : {
            "name" : "dover",
            "longitude": "-75.500000",
            "latitude": "39.000000"
        }
    } , 

    "florida"	        : {
        "abbrev": "fl",
        "capital" : {
            "name" : "tallahassee", 
            "longitude": "-84.253334",
            "latitude": "30.455000"
        }
        
    } , 

    "georgia"	        : {
        "abbrev": "ga" ,
        "capital": {
            "name": "atlanta", 
            "longitude": "-84.386330",
            "latitude": "33.753746"
        }
    } , 

    "hawaii"	        : {
        "abbrev": "hi" ,
        "capital" : {
            "name": "oahu",
            "longitude": "-175.8557",
            "latitude": "21.3045"
        }
    
        } , 

    "idaho"	            : {
        "abbrev": "id" ,
        "capital": {
            "name": "boise",
            "longitude": "-114.742043",
            "latitude": "44.068203"
        }
    
    },

    "illinois"	        : {
        "abbrev": "il" ,
        "capital": {
            "name": "springfield",
            "longitude": "-89.000000",
            "latitude": "40.000000"
        }
    
    }, 

    "indiana"	        : {
        "abbrev": "in" ,
        "capital" : {
            "name": "indianapolis",
            "longtiude": "-86.126976",
            "latitude": "40.273502"
        }
    
    } , 

    "iowa"	            : {
        "abbrev": "ia" ,
        "capital" : {
            "name": "iowa city", 
            "longitude": "-91.530167",
            "latitude": "41.661129"
        }
    
    } , 

    "kansas"	        : {
        "abbrev": "ks" ,
        "capital" : {
            "name": "topeka",
            "longitude": "-98.000000",
            "latitude": "38.500000"
        }
    } , 

    "kentucky"          : {
        "abbrev": "ky" ,
        "capital" : {
            "name": "frankfort", 
            "longitude": "-84.270020",
            "latitude": "37.839333"
        }
    } , 

    "louisiana"	        : {
        "abbrev": "la",
        "capital": {
            "name": "baton rouge",
            "longtitude": "-92.329102",
            "latitude": "30.391830"
        }
    } , 

    "maine"	            : {
        "abbrev": "me" ,
        "capital": {
            "name": "augusta",
            "longitude": "-91.140229",
            "latitude": "44.323535"
        }
    },

    "maryland"	        : {
        "abbrev": "md" ,
        "capital" : {
            "name": "annapolis",
            "longitude": "-76.641273",
            "latitude": "39.045753"
        }
    } , 

    "massachusetts"     : {
        "abbrev": "ma" ,
        "capital" : {
            "name": "boston",
            "longtitude": "-71.057083",
            "latitude": "42.361145"
        }
    }, 

    "michigan"	        : {
        "abbrev": "mi" ,
        "capital": {
            "name": "lansing",
            "longtitude": "-84.506836",
            "latitude": "44.182205"
        }
    }, 

    "minnesota"	        : {
        "abbrev": "mn" ,
        "capital": {
            "name": "saint paul",
            "longitude": "-94.636230",
            "latitude": "46.392410"
        }
    } , 

    "mississippi"       : {
        "abbrev": "ms" ,
        "capital": {
            "name" : "jackson", 
            "longitude": "-90.184807",
            "latitude": "32.298756"
        }
    } , 

    "missouri"	        : {
        "abbrev": "mo" ,
        "capital": {
            "name": "jefferson city",
            "longitude": "-92.174782",
            "latitude": "38.579575"
        }
        
    } , 

    "montana"	        : {
        "abbrev": "mt" ,
        "capital":  {
            "name": "helena", 
            "longitude": "-112.027031" ,
            "latitude": "46.595805"
        }
    } ,

    "nebraska"	        : {
        "abbrev": "ne" ,
        "capital": {
            "name": "lincoln", 
            "longitude": "-96.681679",
            "latitude": "40.806862"
        }
    }, 

    "nevada"	        : {
        "abbrev": "nv" ,
        "capital": {
            "name": "carson city", 
            "longtitude": "-117.224121",
            "latitude": "39.876019"
        }
    } , 


    "new hampshire"     : {
        "abbrev": "nh" ,
        "capital": {
            "name" : "concord",
            "longtitude": "-71.5380556",
            "latitude": "43.220093"
        }
    } , 

    "new jersey"	    : {
        "abbrev": "nj" ,
        "capital": {
            "name": "trenton",
            "longitude": "-74.742935",
            "latitude": "40.217052"
        }
    }, 

    "new mexico"	    : {
        "abbrev": "nm" ,
        "capital": {
            "name": "santa fe",
            "longitude": "105.944183",
            "latitude": "35.691544"
        }
    },

    "new york"	        : {
        "abbrev": "ny" , 
        "capital": {
            "name" : "new york", 
            "longitude": "-73.971321",
            "latitude": "40.776676"
        }
    },

    "north carolina"    : {
        "abbrev": "nc" ,
        "capital" : {
            "name" : "raleigh", 
            "longtitude": "80.793457",
            "latitude": "35.782169" 
        }
    }, 

    "north dakota"      : {
        "abbrev": "nd" ,
        "capital": {
            "name": "bismarck", 
            "longitude" : "-100.437012",
            "latitude": "47.650589"  
        }
    } ,  

    "ohio"	            : {
        "abbrev": "oh" ,
        "capital" : {
            "name": "columbus",
            "longitude": "-82.996216",
            "latitude": "40.367474"
        }
    },  

    "oklahoma"	        : {
        "abbrev": "ok" ,
        "capital" : {
            "name": "oklahoma city", 
            "longitude": "-97.508469",
            "latitude": "35.481918"
        }
    },  

    "oregon"	        : {
        "abbrev": "or" ,
        "capital": {
            "name": "salem",
            "longitude": "-123.0301", 
            "latitude": "44.9387" 
        }
    } ,  

    "pennsylvania"      : {
        "abbrev": "pa" ,
        "capital": {
            "name": "harrisburg", 
            "longtiude": "-77.737766",
            "latitude": "41.118899"
        }
    } ,  

    "rhode island"      : {
        "abbrev": "ri" ,
        "capital": {
            "name": "providence",
            "longitude": "-71.418884",
            "latitude": "41.825226"
        }
    } ,  


    "south carolina"    : {
        "abbrev": "sc", 
        "capital" : {
            "name": "columbia",
            "longitude": "-81.163727",
            "latitude": "33.836082"
        }
    },  

    "south dakota"      : {
        "abbrev": "sd" ,
        "capital" : {
            "name": "pierre",
            "longitude" : "-100.350967",
            "latitude": "44.368316"
        }
    } ,  


    "tennessee"	        : {
        "abbrev": "tn" ,
        "capital": {
            "name" : "nashville",
            "longitude" : "-86.767960",
            "latitude" : "36.174465"
        }

    } ,  

    "texas"	            : {
        "abbrev": "tx" ,
        "capital" : {
            "name" : "austin",
            "longitude": "-97.733330",
            "latitude": "30.266666"
        }
    } ,  

    "utah"	            : {
        "abbrev": "ut" ,
        "capital" : {
            "name": "salt lake city", 
            "longitude": "111.876183",
            "latitude": "40.758701"
        }
    } ,

    "vermont"	        : {
        "abbrev": "vt" ,
        "capital" : {
            "name" : "montpelier",
            "longitude": "-72.69999", 
            "latitude": "44.26639"  
        }
    } ,  
    "virginia"          : {
        "abbrev": "va" ,
        "capital": {
            "name": "richmond", 
            "longitude": "-77.434769",
            "latitude": "37.541290"
        }
    },  
    
    "washington"	    : {
        "abbrev": "wa" ,
        "capital": {
            "name": "olympia",
            "longitude": "-120.740135",
            "latitude": "47.751076"
        }
    } ,  
    "west virginia"     : {
        "abbrev": "wv" ,
        "capital": {
            "name" : "charleston",
            "longitude": "-81.612156", 
            "latitude": "38.336358"
        }
    } ,  

    "wisconsin"         : {
        "abbrev": "wi" , 
        "capital": {
            "name" : "madison",
            "longitude": "-89.401230", 
            "latitude": "43.073052"
        }
    } ,  

    "wyoming"           : {
        "abbrev": "wy" , 
        "capital": {
            "name": "cheyenne",
            "longtitude": "-104.805450",
            "latitude": "41.161079"

        }
    } 
}

